[
  {"id":"miranda","name":"Miranda del Ebro","lat":42.6850,"lon":-2.9470,"saih":{"nivel":"A001L17NRIO1","caudal":"A001L65QRIO1"},"aemet_muni":"09219"},
  {"id":"castejon","name":"Castejón","lat":42.1678,"lon":-1.6906,"saih":{"nivel":"A002T17NRIO1","caudal":"A002T65QRIO1"},"aemet_muni":"31070"},
  {"id":"zaragoza","name":"Zaragoza","lat":41.6488,"lon":-0.8891,"saih":{"nivel":"A011Z17NRIO1","caudal":"A011Z65QRIO1"},"aemet_muni":"50297"},
  {"id":"arroyo","name":"Arroyo","lat":43.1110,"lon":-4.0950,"saih":{"nivel":"A026L18NRIO1","caudal":"A026L66QRIO1"},"aemet_muni":"39065"},
  {"id":"tortosa","name":"Tortosa","lat":40.8125,"lon":0.5216,"saih":{"nivel":"A027C17NRIO1","caudal":"A027C65QRIO1"},"aemet_muni":"43155"},
  {"id":"mendavia","name":"Mendavia","lat":42.4445,"lon":-2.2006,"saih":{"nivel":"A120T17NRIO1","caudal":"A120T65QRIO1"},"aemet_muni":"31165"},
  {"id":"palazuelos","name":"Palazuelos","lat":41.8735,"lon":-4.1430,"saih":{"nivel":"A161L17NRIO1","caudal":"A161L65QRIO1"},"aemet_muni":"40155"},
  {"id":"asco","name":"Ascó","lat":41.1833,"lon":0.5667,"saih":{"nivel":"A163C17NRIO1","caudal":"A163C65QRIO1"},"aemet_muni":"43019"},
  {"id":"reinosa_nestares","name":"Reinosa-Nestares","lat":43.0000,"lon":-4.1390,"saih":{"nivel":"A178L17NRIO1","caudal":"A178L65QRIO1"},"aemet_muni":"39059"},
  {"id":"gelsa","name":"Gelsa","lat":41.4060,"lon":-0.4606,"saih":{"nivel":"A263H17NRIO1","caudal":"A263H65QRIO1"},"aemet_muni":"50119"},
  {"id":"logrono","name":"Logroño","lat":42.4627,"lon":-2.4449,"saih":{"nivel":"A280L03NRIO1","caudal":"A280L67QRIO2"},"aemet_muni":"26089"},
  {"id":"tudela","name":"Tudela","lat":42.0617,"lon":-1.6050,"saih":{"nivel":"A284Z01NRIO1","caudal":"A284Z65QRIO1"},"aemet_muni":"31232"},
  {"id":"riosequillo","name":"Riosequillo","lat":42.7000,"lon":-5.5660,"saih":{"nivel":"A333L01NRIO1","caudal":"A333L66QRIO2"},"aemet_muni":"24139"},
  {"id":"villafranca","name":"Villafranca de Ebro","lat":41.5732,"lon":-0.6510,"saih":{"nivel":"A341Z02NRIO1","caudal":"A341Z65QRIO1"},"aemet_muni":"50285"}
]